[
  {
    "상호": "당일장터",
    "내용": "화수목x금13 // 고정13 (공기밥4반찬4) //// 10:30분 // 송파",
    "주소": "서울 송파구 오금로36길 62",
    "네이버지도url": "https://naver.me/GJZvRZt2",
    "좌표url": "https://map.naver.com/p/?lat=37.5004903&lng=127.1235525&zoom=17",
    "lat": 37.5004903,
    "lng": 127.1235525
  },
  {
    "상호": "글로리아",
    "내용": "공기밥2 반찬3 국2 // 초일동 136번지 // 12시",
    "주소": "경기 하남시 초일동 136",
    "네이버지도url": "https://naver.me/GHLZTflA",
    "좌표url": "https://map.naver.com/p/?lat=37.5389330&lng=127.1802775&zoom=17",
    "lat": 37.5389330,
    "lng": 127.1802775
  },
  {
    "상호": "HY모터스",
    "내용": "실외문앞 // 공기밥 2 // 하남시 초일로 162 2층",
    "주소": "경기 하남시 초일로 162",
    "네이버지도url": "https://naver.me/5VxTi4D1",
    "좌표url": "https://map.naver.com/p/?lat=37.5389330&lng=127.1802775&zoom=17",
    "lat": 37.5389330,
    "lng": 127.1802775
  },
  {
    "상호": "대명유통",
    "내용": "하남시 초일동 268-3번지",
    "주소": "경기 하남시 초일동 268-3",
    "네이버지도url": "https://naver.me/F2LwT7Wp",
    "좌표url": "https://map.naver.com/p/?lat=37.5389330&lng=127.1802775&zoom=17",
    "lat": 37.5389330,
    "lng": 127.1802775
  },
  {
    "상호": "토탈케어M",
    "내용": "1층 실내 // 고정1 // 초광로46번길 52-8 1층 11시30분",
    "주소": "경기 하남시 초광로46번길 52-8",
    "네이버지도url": "https://naver.me/Ffs0LNuY",
    "좌표url": "https://map.naver.com/p/?lat=37.52451560296118&lng=127.17467513713024&zoom=17",
    "lat": 37.52451560296118,
    "lng": 127.17467513713024
  },
  {
    "상호": "대산에프엔비",
    "내용": "고정2 // 11:30분 광암동91번지",
    "주소": "경기 하남시 광암동 91",
    "네이버지도url": "https://naver.me/GfroABxX",
    "좌표url": "https://map.naver.com/p/?lat=37.5244132&lng=127.1738169&zoom=17",
    "lat": 37.5244132,
    "lng": 127.1738169
  },
  {
    "상호": "압동제이에스모터",
    "내용": "왼쪽 화장실앞 // 고정4 // 12시 // 광암동401-10 5층",
    "주소": "경기 하남시 광암동 401-10",
    "네이버지도url": "https://naver.me/5bCRlo6l",
    "좌표url": "https://map.naver.com/p/?lat=37.5244132&lng=127.1738169&zoom=17",
    "lat": 37.5244132,
    "lng": 127.1738169
  },
  {
    "상호": "아시컴퍼니",
    "내용": "엘베 우측 돌아서 검정박스 안에 둔다. 수거는 엘베앞 // 금7 // 반찬3 // 12:20분 초광산단동로6번길 54 3층",
    "주소": "경기 하남시 광암동",
    "네이버지도url": "https://naver.me/FwGkqecd",
    "좌표url": "https://map.naver.com/p/?lat=37.5244132&lng=127.1738169&zoom=17",
    "lat": 37.5244132,
    "lng": 127.1738169
  },
  {
    "상호": "에스엠상사",
    "내용": "공기밥(인분수대로) // 광암동 69-2 // 2층 // 12시",
    "주소": "경기 하남시 광암동 69-2",
    "네이버지도url": "https://naver.me/IIDZ650I",
    "좌표url": "https://map.naver.com/p/?lat=37.5244132&lng=127.1738169&zoom=17",
    "lat": 37.5244132,
    "lng": 127.1738169
  },
  {
    "상호": "렌토킬이니셜코리아",
    "내용": "사무실 안에 주고 밖에서 수거 // 010-4454-1342 11:30분 초이로80번길 6",
    "주소": "경기 하남시 초이동",
    "네이버지도url": "https://naver.me/5Z1Osm0e",
    "좌표url": "https://map.naver.com/p/?lat=37.5318494&lng=127.1749952&zoom=17",
    "lat": 37.5318494,
    "lng": 127.1749952
  },
  {
    "상호": "헬셀",
    "내용": "네비주의. 택 주의. 계단 올라가서 노크 // 공기밥2반찬2 // 하남시 초이동 130-3번지 2층 // 12시",
    "주소": "경기 하남시 초이동 130-3",
    "네이버지도url": "https://naver.me/5DZbag7D",
    "좌표url": "https://map.naver.com/p/?lat=37.5318494&lng=127.1749952&zoom=17",
    "lat": 37.5318494,
    "lng": 127.1749952
  },
  {
    "상호": "아성",
    "내용": "네임텍. 샛길이 빠름. 이층 휴게실 두고. 1층 주차장에서 수거 // 공기밥2반찬3 // 풍산동 378-3번지",
    "주소": "경기 하남시 풍산동 378-3",
    "네이버지도url": "https://naver.me/5FDl7YaW",
    "좌표url": "https://map.naver.com/p/?lat=37.5502400&lng=127.1901400&zoom=17",
    "lat": 37.5502400,
    "lng": 127.1901400
  },
  {
    "상호": "퓨처젠",
    "내용": "전화 01037866540 // 010-2124-7842 // 공기밥1반찬1 // 하남IDC 11시30분",
    "주소": "경기 하남시 미사강변중앙로48번길 25",
    "네이버지도url": "https://naver.me/GdT6hSh2",
    "좌표url": "https://map.naver.com/p/?lat=37.5510850&lng=127.1939859&zoom=17",
    "lat": 37.5510850,
    "lng": 127.1939859
  },
  {
    "상호": "광림약품",
    "내용": "월요일가방회수 / 강변중앙로 48번길 15 2층 // 12시",
    "주소": "경기 하남시 미사강변중앙로48번길 15 7층",
    "네이버지도url": "https://naver.me/G6RiMufM",
    "좌표url": "https://map.naver.com/p/?lat=37.5510850&lng=127.1939859&zoom=17",
    "lat": 37.5510850,
    "lng": 127.1939859
  },
  {
    "상호": "아리카롱",
    "내용": "문앞에 // 고정2 // 미사강변중앙로31번길 30 // 318호 // 12시",
    "주소": "경기 하남시 미사강변중앙로31번길 30",
    "네이버지도url": "https://naver.me/xONvRS1s",
    "좌표url": "https://map.naver.com/p/?lat=37.5501317&lng=127.1911788&zoom=17",
    "lat": 37.5501317,
    "lng": 127.1911788
  },
  {
    "상호": "태진컴퍼니",
    "내용": "12시. 단속카메라 뒤에 주차. 복도에 두고 수거 // 공기밥2메인2 // 하남시 조정대로 45 // 3층 309호",
    "주소": "경기 하남시 풍산동 495",
    "네이버지도url": "https://naver.me/5Z1OtcLa",
    "좌표url": "https://map.naver.com/p/?lat=37.55135010467974&lng=127.185099329369&zoom=17",
    "lat": 37.55135010467974,
    "lng": 127.185099329369
  },
  {
    "상호": "도담플러스",
    "내용": "금x // 아리수로 570 102동 2067호(상가2층) // 12시",
    "주소": "경기 하남시 아리수로 570",
    "네이버지도url": "https://naver.me/5ajx5hBY",
    "좌표url": "https://map.naver.com/p/?lat=37.5670754&lng=127.1908169&zoom=17",
    "lat": 37.5670754,
    "lng": 127.1908169
  },
  {
    "상호": "코미이비인후과의원",
    "내용": "실내회의실 전달. 비상구 계단 수거 // 금4 // (수x!) // 미사강변대로 222 미사중앙프라자 502호",
    "주소": "경기 하남시 미사강변대로 222",
    "네이버지도url": "https://naver.me/GgUOF9h6",
    "좌표url": "https://map.naver.com/p/?lat=37.5695000&lng=127.1842268&zoom=17",
    "lat": 37.5695000,
    "lng": 127.1842268
  },
  {
    "상호": "서울열린치과의원",
    "내용": "들어가서 회의실. 수거는 밖에 // 금7 // 1시 강동구 고덕로 380 2층",
    "주소": "서울 강동구 고덕로 380",
    "네이버지도url": "https://naver.me/GGG4ZeXS",
    "좌표url": "https://map.naver.com/p/?lat=37.5564792&lng=127.1681347&zoom=17",
    "lat": 37.5564792,
    "lng": 127.1681347
  },
  {
    "상호": "봄날약국",
    "내용": "직접전달 // 고정설1 // 고덕로380 206호",
    "주소": "서울 강동구 고덕로 380",
    "네이버지도url": "https://naver.me/5hogmIM8",
    "좌표url": "https://map.naver.com/p/?lat=37.5564792&lng=127.1681347&zoom=17",
    "lat": 37.5564792,
    "lng": 127.1681347
  },
  {
    "상호": "하늘빛연세안과",
    "내용": "직접전달. 화분뒤 수거 // 금4/1 // 김치반찬빼고 // 1시 고덕로 385 4층",
    "주소": "서울 강동구 고덕로 385",
    "네이버지도url": "https://naver.me/IFEK4X6c",
    "좌표url": "https://map.naver.com/p/?lat=37.5573198&lng=127.1685102&zoom=17",
    "lat": 37.5573198,
    "lng": 127.1685102
  },
  {
    "상호": "오늘와즐리",
    "내용": "금2 // 공기밥1 // 강동구 고덕로 399 1층 1시",
    "주소": "서울 강동구 고덕동 171",
    "네이버지도url": "https://naver.me/GFsnSNe7",
    "좌표url": "https://map.naver.com/p/?lat=37.5580221407833&lng=127.17114366695586&zoom=17",
    "lat": 37.5580221407833,
    "lng": 127.17114366695586
  },
  {
    "상호": "롤링파스타",
    "내용": "고정3 // 망월동 1106 힐스테이트에코미사 2층 // 2시",
    "주소": "경기 하남시 망월동 1106",
    "네이버지도url": "https://naver.me/xvCEwYbo",
    "좌표url": "https://map.naver.com/p/?lat=37.5675834&lng=127.1875863&zoom=17",
    "lat": 37.5675834,
    "lng": 127.1875863
  }
]
